[
  {
    "name": "Skagen",
    "model": "Leonardo Selex RAT-31DL",
    "lon": 10.6023,
    "lat": 57.742444
  },
  {
    "name": "Bornholm",
    "model": "Marconi S-723",
    "lon": 14.88925,
    "lat": 55.111694
  },
  {
    "name": "Skrydstrup Air Base",
    "model": "Lockheed Martin TPS-77",
    "lon": 9.266111,
    "lat": 55.228889
  },
  {
    "name": "Aalborg Air Base",
    "model": "Indra Sistemas PSR 2D",
    "lon": 9.849167,
    "lat": 57.092778
  },
  {
    "name": "Karup Air Base",
    "model": "Indra Sistemas PSR 2D",
    "lon": 9.104444,
    "lat": 56.297222
  }
]
